{"type":"FeatureCollection","features":[{"type":"Feature","properties":{"OBJECTID":1,"STATION_NAME":"Criminal Justice Academy","STATION_ADDRESS":"14601 Lee RD","PHONE_NUMBER":"703-449-7200","TYPE":"ACADEMY"},"geometry":{"type":"Point","coordinates":[-77.45098246673818,38.88813716794518]}},{"type":"Feature","properties":{"OBJECTID":2,"STATION_NAME":"Fair Oaks Station","STATION_ADDRESS":"12300 Lee Jackson Memorial HWY","PHONE_NUMBER":"703-591-0966","TYPE":"STATION"},"geometry":{"type":"Point","coordinates":[-77.37026042478944,38.87130984954716]}},{"type":"Feature","properties":{"OBJECTID":3,"STATION_NAME":"Franconia Station","STATION_ADDRESS":"6121 Franconia RD","PHONE_NUMBER":"703-922-0889","TYPE":"STATION"},"geometry":{"type":"Point","coordinates":[-77.14801426436799,38.78096468160963]}},{"type":"Feature","properties":{"OBJECTID":4,"STATION_NAME":"Helicopter Division","STATION_ADDRESS":"4604 West Ox RD","PHONE_NUMBER":"703-830-3105","TYPE":"HELO"},"geometry":{"type":"Point","coordinates":[-77.3735056908991,38.85346707538092]}},{"type":"Feature","properties":{"OBJECTID":5,"STATION_NAME":"Mason Station","STATION_ADDRESS":"6507 Columbia PIKE","PHONE_NUMBER":"703-256-8035","TYPE":"STATION"},"geometry":{"type":"Point","coordinates":[-77.16412683947104,38.837349354967635]}},{"type":"Feature","properties":{"OBJECTID":6,"STATION_NAME":"McLean Station","STATION_ADDRESS":"1437 Balls Hill RD","PHONE_NUMBER":"703-556-7750","TYPE":"STATION"},"geometry":{"type":"Point","coordinates":[-77.19875265616625,38.93257535936757]}},{"type":"Feature","properties":{"OBJECTID":7,"STATION_NAME":"Mt. Vernon Station","STATION_ADDRESS":"2511 Parkers LN","PHONE_NUMBER":"703-360-8400","TYPE":"STATION"},"geometry":{"type":"Point","coordinates":[-77.07668858480858,38.74170680692083]}},{"type":"Feature","properties":{"OBJECTID":8,"STATION_NAME":"PSTOC / NOVARIS","STATION_ADDRESS":"4890 Alliance DR","PHONE_NUMBER":"571-350-1411","TYPE":"COMM"},"geometry":{"type":"Point","coordinates":[-77.37491302450856,38.84718356589058]}},{"type":"Feature","properties":{"OBJECTID":9,"STATION_NAME":"Public Safety Communications","STATION_ADDRESS":"3911 Woodburn RD","PHONE_NUMBER":"703-280-0527","TYPE":"COMM"},"geometry":{"type":"Point","coordinates":[-77.24330183875159,38.84017171948802]}},{"type":"Feature","properties":{"OBJECTID":10,"STATION_NAME":"Reston Station","STATION_ADDRESS":"1801 Cameron Glen DR","PHONE_NUMBER":"703-478-0904","TYPE":"STATION"},"geometry":{"type":"Point","coordinates":[-77.36013881624416,38.96328882652458]}},{"type":"Feature","properties":{"OBJECTID":11,"STATION_NAME":"Sully Station","STATION_ADDRESS":"4900 Stonecroft BLVD","PHONE_NUMBER":"703-814-7000","TYPE":"STATION"},"geometry":{"type":"Point","coordinates":[-77.45112258356806,38.871137152330014]}},{"type":"Feature","properties":{"OBJECTID":12,"STATION_NAME":"West Springfield Station","STATION_ADDRESS":"6140 Rolling RD","PHONE_NUMBER":"703-644-7377","TYPE":"STATION"},"geometry":{"type":"Point","coordinates":[-77.23741681045144,38.783617461385184]}},{"type":"Feature","properties":{"OBJECTID":13,"STATION_NAME":"Fairfax County Police Annex ","STATION_ADDRESS":"10600 Page AVE","PHONE_NUMBER":"703-691-2131","TYPE":"HQ"},"geometry":{"type":"Point","coordinates":[-77.31175794874943,38.845294033938174]}},{"type":"Feature","properties":{"OBJECTID":14,"STATION_NAME":"Police Massey Building","STATION_ADDRESS":"4100 Chain Bridge RD","PHONE_NUMBER":"703-246-2355","TYPE":"HQ"},"geometry":{"type":"Point","coordinates":[-77.30926199821796,38.84502271177727]}},{"type":"Feature","properties":{"OBJECTID":15,"STATION_NAME":"Animal Shelter","STATION_ADDRESS":"4500 West Ox RD","PHONE_NUMBER":"703-830-1100","TYPE":"ANML"},"geometry":{"type":"Point","coordinates":[-77.37236960742302,38.85621356988564]}},{"type":"Feature","properties":{"OBJECTID":337,"STATION_NAME":"Town of Herdon Station ","STATION_ADDRESS":"397 Herndon PKWY","PHONE_NUMBER":"703-435-6846","TYPE":"STATION"},"geometry":{"type":"Point","coordinates":[-77.37155404264578,38.961291109489494]}},{"type":"Feature","properties":{"OBJECTID":338,"STATION_NAME":"Town of Vienna Station ","STATION_ADDRESS":"215 Center ST","PHONE_NUMBER":"703-255-6366","TYPE":"STATION"},"geometry":{"type":"Point","coordinates":[-77.26352535232368,38.89954686482105]}},{"type":"Feature","properties":{"OBJECTID":339,"STATION_NAME":"City of Falls Church Station","STATION_ADDRESS":"300 Park AVE","PHONE_NUMBER":"703-241-5050","TYPE":"STATION"},"geometry":{"type":"Point","coordinates":[-77.17232241801264,38.885708044233034]}},{"type":"Feature","properties":{"OBJECTID":340,"STATION_NAME":"City of Alexandria Station","STATION_ADDRESS":"3600 Wheeler AVE","PHONE_NUMBER":"703-746-4444","TYPE":"STATION"},"geometry":{"type":"Point","coordinates":[-77.09150375661626,38.807141918330636]}},{"type":"Feature","properties":{"OBJECTID":341,"STATION_NAME":"City of Fairfax Station","STATION_ADDRESS":"3730 Old Lee HWY","PHONE_NUMBER":"7033857924","TYPE":"STATION"},"geometry":{"type":"Point","coordinates":[-77.29984718150249,38.85178466838853]}},{"type":"Feature","properties":{"OBJECTID":342,"STATION_NAME":"New - Public Safety Building","STATION_ADDRESS":"12099 Government Center PKWY","PHONE_NUMBER":null,"TYPE":"HQ"},"geometry":{"type":"Point","coordinates":[-77.3626650585197,38.85761751564848]}}]}